[
  {
    "title": "Great Plains Yearly Meeting",
    "longitude": "-97.33005299999999",
    "mappable": "1",
    "phone": "(316)262-0471",
    "email": "universityfriends@sbcglobal.net, crloesch@sbcglobal.net",
    "city": "Wichita",
    "address": "1840 W. University Ave.",
    "latitude": "37.68717609999999",
    "zip": "67213-3966",
    "description": "1 block E of Friends University Campus",
    "worship_time": "10:45am",
    "state": "KS",
    "website": "http://universityfriends.quaker.org",
    "lgbt_affirming": "0"
  },
  {
    "title": "Central City Friends Church",
    "description": "From junction Hwys 30 & 14, Hwy 14 N across railroad, 1st L. (E St.), 2nd R. (B Ave.), 2 blocks",
    "longitude": "-98.00469409999999",
    "mappable": "1",
    "phone": "(308)946-2585",
    "email": "cmesner@hotmail.com",
    "city": "Central City",
    "address": "2715 25th Ave",
    "latitude": "41.1181788",
    "zip": "68826",
    "description": "403 B Ave, corner of B Ave and C St",
    "worship_time": "1:00pm every 4th Sunday",
    "state": "NE",
    "lgbt_affirming": "0"
  },
  {
    "title": "University Friends Church",
    "longitude": "-97.33005299999999",
    "mappable": "1",
    "phone": "(316)262-0471",
    "email": "universityfriends@sbcglobal.net, crloesch@sbcglobal.net",
    "city": "Wichita",
    "address": "1840 W. University Ave.",
    "latitude": "37.68717609999999",
    "zip": "67213-3966",
    "description": "1 block E of Friends University Campus",
    "worship_time": "10:45am",
    "state": "KS",
    "website": "http://universityfriends.quaker.org",
    "lgbt_affirming": "0"
  },
  {
    "title": "Hominy Friends Meeting",
    "description": "off Hwy 99, 1 block S. of Hwy 20",
    "longitude": "-96.38827800000001",
    "mappable": "1",
    "email": "carolerevard@aol.com, davnagle@juno.com",
    "city": "Hominy",
    "address": "510 Friends Rd.",
    "latitude": "36.4122768",
    "zip": "74035",
    "worship_time": "11:00am",
    "state": "OK",
    "lgbt_affirming": "0"
  },
  {
    "title": "Council House Friends",
    "description": "Council House Friends is located Northwest of Tiff City, MO, East of highway 10, and North of E 240 Rd. ",
    "longitude": "-94.66153749999999",
    "mappable": "1",
    "city": "Wyandotte",
    "address": "22601 S. 680 Rd.",
    "latitude": "36.6825495",
    "zip": "74370-3412",
    "description": "Corner of Cayuga, S. 680 and E. 230 Roads",
    "worship_time": "10:00am 1st Sundays",
    "state": "OK",
    "website": "http://www.councilhousefriends.org",
    "lgbt_affirming": "0"
  },
  {
    "title": "Heartland Friends Meeting",
    "description": "147th W. Hwy 54, just NE of Wichita Friends School",
    "longitude": "-97.509812",
    "mappable": "1",
    "phone": "(316)729-4483",
    "email": "youngroup@sctelecom.net",
    "city": "Wichita",
    "address": "14505 Sandwedge Circle",
    "latitude": "37.665943",
    "zip": "67235",
    "worship_time": "11:00am",
    "yearly_meeting": ", Missouri Valley FC",
    "state": "KS",
    "website": "http://heartland.quaker.org",
    "lgbt_affirming": "0"
  }
]